{
  "type": "FeatureCollection",
  "features": [
    {
      "type": "Feature",
      "geometry": {
        "type": "Point",
        "coordinates": [
          9.19,
          45.4642
        ]
      },
      "properties": {
        "timestamp": "2025-04-01T08:00:00Z",
        "label": "Milano",
        "source": "simulate_spot"
      }
    },
    {
      "type": "Feature",
      "geometry": {
        "type": "Point",
        "coordinates": [
          13.7768,
          45.65
        ]
      },
      "properties": {
        "timestamp": "2025-04-01T14:00:00Z",
        "label": "Trieste",
        "source": "simulate_spot"
      }
    },
    {
      "type": "Feature",
      "geometry": {
        "type": "Point",
        "coordinates": [
          15.9819,
          45.815
        ]
      },
      "properties": {
        "timestamp": "2025-04-01T20:00:00Z",
        "label": "Zagreb",
        "source": "simulate_spot"
      }
    },
    {
      "type": "Feature",
      "geometry": {
        "type": "Point",
        "coordinates": [
          20.4489,
          44.7866
        ]
      },
      "properties": {
        "timestamp": "2025-04-02T02:00:00Z",
        "label": "Belgrado",
        "source": "simulate_spot"
      }
    },
    {
      "type": "Feature",
      "geometry": {
        "type": "Point",
        "coordinates": [
          27.5667,
          47.1667
        ]
      },
      "properties": {
        "timestamp": "2025-04-02T08:00:00Z",
        "label": "Bucarest",
        "source": "simulate_spot"
      }
    },
    {
      "type": "Feature",
      "geometry": {
        "type": "Point",
        "coordinates": [
          28.9784,
          41.0082
        ]
      },
      "properties": {
        "timestamp": "2025-04-02T14:00:00Z",
        "label": "Istanbul",
        "source": "simulate_spot"
      }
    }
  ]
}